{
  "文湖線": {
    "BR01": {
      "coordinates": [121.579338, 24.998197],
      "name_en": "Taipei Zoo",
      "name_tw": "動物園",
      "color": "#c48c31"
    },
    "BR02": {
      "coordinates": [121.573145, 24.998241],
      "name_en": "Muzha",
      "name_tw": "木柵",
      "color": "#c48c31"
    },
    "BR03": {
      "coordinates": [121.568102, 24.998585],
      "name_en": "Wanfang Community",
      "name_tw": "萬芳社區",
      "color": "#c48c31"
    },
    "BR04": {
      "coordinates": [121.558152, 24.999386],
      "name_en": "Wanfang Hospital",
      "name_tw": "萬芳醫院",
      "color": "#c48c31"
    },
    "BR05": {
      "coordinates": [121.557107, 25.005475],
      "name_en": "Xinhai",
      "name_tw": "辛亥",
      "color": "#c48c31"
    },
    "BR06": {
      "coordinates": [121.558791, 25.018535],
      "name_en": "Linguang",
      "name_tw": "麟光",
      "color": "#c48c31"
    },
    "BR07": {
      "coordinates": [121.553115, 25.023777],
      "name_en": "Liuzhangli",
      "name_tw": "六張犁",
      "color": "#c48c31"
    },
    "BR08": {
      "coordinates": [121.543437, 25.026125],
      "name_en": "Technology Building",
      "name_tw": "科技大樓",
      "color": "#c48c31"
    },
    "BR09": {
      "coordinates": [121.543551, 25.032943],
      "name_en": "Daan",
      "name_tw": "大安",
      "color": "#c48c31"
    },
    "BR10": {
      "coordinates": [121.543767, 25.041629],
      "name_en": "Zhongxiao Fuxing",
      "name_tw": "忠孝復興",
      "color": "#c48c31"
    },
    "BR11": {
      "coordinates": [121.544011, 25.052319],
      "name_en": "Nanjing Fuxing",
      "name_tw": "南京復興",
      "color": "#c48c31"
    },
    "BR12": {
      "coordinates": [121.544227, 25.060849],
      "name_en": "Zhongshan Junior High School",
      "name_tw": "中山國中",
      "color": "#c48c31"
    },
    "BR13": {
      "coordinates": [121.551996, 25.063],
      "name_en": "Songshan Airport",
      "name_tw": "松山機場",
      "color": "#c48c31"
    },
    "BR14": {
      "coordinates": [121.546895, 25.079477],
      "name_en": "Dazhi",
      "name_tw": "大直",
      "color": "#c48c31"
    },
    "BR15": {
      "coordinates": [121.555592, 25.084853],
      "name_en": "Jiannan Rd.",
      "name_tw": "劍南路",
      "color": "#c48c31"
    },
    "BR16": {
      "coordinates": [121.567213, 25.082133],
      "name_en": "Xihu",
      "name_tw": "西湖",
      "color": "#c48c31"
    },
    "BR17": {
      "coordinates": [121.575081, 25.080028],
      "name_en": "Gangqian",
      "name_tw": "港墘",
      "color": "#c48c31"
    },
    "BR18": {
      "coordinates": [121.584761, 25.078532],
      "name_en": "Wende",
      "name_tw": "文德",
      "color": "#c48c31"
    },
    "BR19": {
      "coordinates": [121.594408, 25.083661],
      "name_en": "Neihu",
      "name_tw": "內湖",
      "color": "#c48c31"
    },
    "BR20": {
      "coordinates": [121.602141, 25.083845],
      "name_en": "Dahu Park",
      "name_tw": "大湖公園",
      "color": "#c48c31"
    },
    "BR21": {
      "coordinates": [121.607158, 25.072701],
      "name_en": "Huzhou",
      "name_tw": "葫洲",
      "color": "#c48c31"
    },
    "BR22": {
      "coordinates": [121.611445, 25.067147],
      "name_en": "Donghu",
      "name_tw": "東湖",
      "color": "#c48c31"
    },
    "BR23": {
      "coordinates": [121.615953, 25.059905],
      "name_en": "Nangang Software Park",
      "name_tw": "南港軟體園區",
      "color": "#c48c31"
    },
    "BR24": {
      "coordinates": [121.6175001, 25.055288],
      "name_en": "Taipei Nangang Exhibition Center",
      "name_tw": "南港展覽館",
      "color": "#c48c31"
    }
  },
  "淡水信義線": {
    "R02": {
      "coordinates": [121.569576, 25.03283],
      "name_en": "Xiangshan",
      "name_tw": "象山",
      "color": "#e3002c"
    },
    "R03": {
      "coordinates": [121.563292, 25.033102],
      "name_en": "Taipei 101/World Trade Center",
      "name_tw": "台北101/世貿",
      "color": "#e3002c"
    },
    "R04": {
      "coordinates": [121.553526, 25.033326],
      "name_en": "Xinyi Anhe",
      "name_tw": "信義安和",
      "color": "#e3002c"
    },
    "R05": {
      "coordinates": [121.543551, 25.032943],
      "name_en": "Daan",
      "name_tw": "大安",
      "color": "#e3002c"
    },
    "R06": {
      "coordinates": [121.534882, 25.033396],
      "name_en": "Daan Park",
      "name_tw": "大安森林公園",
      "color": "#e3002c"
    },
    "R07": {
      "coordinates": [121.528739, 25.033847],
      "name_en": "Dongmen",
      "name_tw": "東門",
      "color": "#e3002c"
    },
    "R08": {
      "coordinates": [121.51827, 25.032729],
      "name_en": "Chiang Kai-Shek Memorial Hall",
      "name_tw": "中正紀念堂",
      "color": "#e3002c"
    },
    "R09": {
      "coordinates": [121.51604, 25.041256],
      "name_en": "NTU Hospital",
      "name_tw": "台大醫院",
      "color": "#e3002c"
    },
    "R10": {
      "coordinates": [121.517532, 25.046255],
      "name_en": "Taipei Main Station",
      "name_tw": "台北車站",
      "color": "#e3002c"
    },
    "R11": {
      "coordinates": [121.520392, 25.052685],
      "name_en": "Zhongshan",
      "name_tw": "中山",
      "color": "#e3002c"
    },
    "R12": {
      "coordinates": [121.520627, 25.057805],
      "name_en": "Shuanglian",
      "name_tw": "雙連",
      "color": "#e3002c"
    },
    "R13": {
      "coordinates": [121.51932, 25.062905],
      "name_en": "Minquan W. Rd.",
      "name_tw": "民權西路",
      "color": "#e3002c"
    },
    "R14": {
      "coordinates": [121.520118, 25.071353],
      "name_en": "Yuanshan",
      "name_tw": "圓山",
      "color": "#e3002c"
    },
    "R15": {
      "coordinates": [121.525078, 25.084873],
      "name_en": "Jiantan",
      "name_tw": "劍潭",
      "color": "#e3002c"
    },
    "R16": {
      "coordinates": [121.52623, 25.093535],
      "name_en": "Shilin",
      "name_tw": "士林",
      "color": "#e3002c"
    },
    "R17": {
      "coordinates": [121.522514, 25.10306],
      "name_en": "Zhishan",
      "name_tw": "芝山",
      "color": "#e3002c"
    },
    "R18": {
      "coordinates": [121.518848, 25.109721],
      "name_en": "Mingde",
      "name_tw": "明德",
      "color": "#e3002c"
    },
    "R19": {
      "coordinates": [121.515559, 25.114523],
      "name_en": "Shipai",
      "name_tw": "石牌",
      "color": "#e3002c"
    },
    "R20": {
      "coordinates": [121.506252, 25.120872],
      "name_en": "Qilian",
      "name_tw": "唭哩岸",
      "color": "#e3002c"
    },
    "R21": {
      "coordinates": [121.501132, 25.125491],
      "name_en": "Qiyan",
      "name_tw": "奇岩",
      "color": "#e3002c"
    },
    "R22": {
      "coordinates": [121.498633, 25.131841],
      "name_en": "Beitou",
      "name_tw": "北投",
      "color": "#e3002c"
    },
    "R22A": {
      "coordinates": [121.50253, 25.136933],
      "name_en": "Xinbeitou",
      "name_tw": "新北投",
      "color": "#e3002c"
    },
    "R23": {
      "coordinates": [121.485444, 25.137474],
      "name_en": "Fuxinggang",
      "name_tw": "復興崗",
      "color": "#e3002c"
    },
    "R24": {
      "coordinates": [121.47341, 25.130969],
      "name_en": "Zhongyi",
      "name_tw": "忠義",
      "color": "#e3002c"
    },
    "R25": {
      "coordinates": [121.467102, 25.125633],
      "name_en": "Guandu",
      "name_tw": "關渡",
      "color": "#e3002c"
    },
    "R26": {
      "coordinates": [121.459479, 25.13694],
      "name_en": "Zhuwei",
      "name_tw": "竹圍",
      "color": "#e3002c"
    },
    "R27": {
      "coordinates": [121.458872, 25.154042],
      "name_en": "Hongshulin",
      "name_tw": "紅樹林",
      "color": "#e3002c"
    },
    "R28": {
      "coordinates": [121.445561, 25.167818],
      "name_en": "Tamsui",
      "name_tw": "淡水",
      "color": "#e3002c"
    }
  },
  "松山新店線": {
    "G01": {
      "coordinates": [121.537584, 24.957855],
      "name_en": "Xindian",
      "name_tw": "新店",
      "color": "#008659"
    },
    "G02": {
      "coordinates": [121.54131, 24.967393],
      "name_en": "Xindian District Office",
      "name_tw": "新店區公所",
      "color": "#008659"
    },
    "G03": {
      "coordinates": [121.542942, 24.975169],
      "name_en": "Qizhang",
      "name_tw": "七張",
      "color": "#008659"
    },
    "G03A": {
      "coordinates": [121.530339, 24.971907],
      "name_en": "Xiaobitan",
      "name_tw": "小碧潭",
      "color": "#008659"
    },
    "G04": {
      "coordinates": [121.541352, 24.982899],
      "name_en": "Dapinglin",
      "name_tw": "大坪林",
      "color": "#008659"
    },
    "G05": {
      "coordinates": [121.5406037, 24.9921276],
      "name_en": "Jingmei",
      "name_tw": "景美",
      "color": "#008659"
    },
    "G06": {
      "coordinates": [121.539051, 25.001853],
      "name_en": "Wanlong",
      "name_tw": "萬隆",
      "color": "#008659"
    },
    "G07": {
      "coordinates": [121.534216, 25.014908],
      "name_en": "Gongguan",
      "name_tw": "公館",
      "color": "#008659"
    },
    "G08": {
      "coordinates": [121.528168, 25.020725],
      "name_en": "Taipower Building",
      "name_tw": "台電大樓",
      "color": "#008659"
    },
    "G09": {
      "coordinates": [121.522873, 25.026357],
      "name_en": "Guting",
      "name_tw": "古亭",
      "color": "#008659"
    },
    "G10": {
      "coordinates": [121.51827, 25.032729],
      "name_en": "Chiang Kai-Shek Memorial Hall",
      "name_tw": "中正紀念堂",
      "color": "#008659"
    },
    "G11": {
      "coordinates": [121.510857, 25.035547],
      "name_en": "Xiaonanmen",
      "name_tw": "小南門",
      "color": "#008659"
    },
    "G12": {
      "coordinates": [121.508303, 25.04209],
      "name_en": "Ximen",
      "name_tw": "西門",
      "color": "#008659"
    },
    "G13": {
      "coordinates": [121.510184, 25.049554],
      "name_en": "Beimen",
      "name_tw": "北門",
      "color": "#008659"
    },
    "G14": {
      "coordinates": [121.520392, 25.052685],
      "name_en": "Zhongshan",
      "name_tw": "中山",
      "color": "#008659"
    },
    "G15": {
      "coordinates": [121.533075, 25.052015],
      "name_en": "Songjiang Nanjing",
      "name_tw": "松江南京",
      "color": "#008659"
    },
    "G16": {
      "coordinates": [121.544011, 25.052319],
      "name_en": "Nanjing Fuxing",
      "name_tw": "南京復興",
      "color": "#008659"
    },
    "G17": {
      "coordinates": [121.55153, 25.051836],
      "name_en": "Taipei Arena",
      "name_tw": "台北小巨蛋",
      "color": "#008659"
    },
    "G18": {
      "coordinates": [121.564708, 25.051652],
      "name_en": "Nanjing Sanmin",
      "name_tw": "南京三民",
      "color": "#008659"
    },
    "G19": {
      "coordinates": [121.577706, 25.050118],
      "name_en": "Songshan",
      "name_tw": "松山",
      "color": "#008659"
    }
  },
  "中和新蘆線": {
    "O01": {
      "coordinates": [121.509237, 24.990045],
      "name_en": "Nanshijiao",
      "name_tw": "南勢角",
      "color": "#f8b61c"
    },
    "O02": {
      "coordinates": [121.505113, 24.993905],
      "name_en": "Jingan",
      "name_tw": "景安",
      "color": "#f8b61c"
    },
    "O03": {
      "coordinates": [121.511231, 25.002876],
      "name_en": "Yongan Market",
      "name_tw": "永安市場",
      "color": "#f8b61c"
    },
    "O04": {
      "coordinates": [121.515485, 25.013821],
      "name_en": "Dingxi",
      "name_tw": "頂溪",
      "color": "#f8b61c"
    },
    "O05": {
      "coordinates": [121.522873, 25.026357],
      "name_en": "Guting",
      "name_tw": "古亭",
      "color": "#f8b61c"
    },
    "O06": {
      "coordinates": [121.528739, 25.033847],
      "name_en": "Dongmen",
      "name_tw": "東門",
      "color": "#f8b61c"
    },
    "O07": {
      "coordinates": [121.532905, 25.042356],
      "name_en": "Zhongxiao Xinsheng",
      "name_tw": "忠孝新生",
      "color": "#f8b61c"
    },
    "O08": {
      "coordinates": [121.533075, 25.052015],
      "name_en": "Songjiang Nanjing",
      "name_tw": "松江南京",
      "color": "#f8b61c"
    },
    "O09": {
      "coordinates": [121.533185, 25.059718],
      "name_en": "Xingtian Temple",
      "name_tw": "行天宮",
      "color": "#f8b61c"
    },
    "O10": {
      "coordinates": [121.526419, 25.062694],
      "name_en": "Zhongshan Elementary School",
      "name_tw": "中山國小",
      "color": "#f8b61c"
    },
    "O11": {
      "coordinates": [121.51932, 25.062905],
      "name_en": "Minquan W. Rd.",
      "name_tw": "民權西路",
      "color": "#f8b61c"
    },
    "O12": {
      "coordinates": [121.51272, 25.063256],
      "name_en": "Daqiaotou",
      "name_tw": "大橋頭",
      "color": "#f8b61c"
    },
    "O13": {
      "coordinates": [121.500762, 25.063274],
      "name_en": "Taipei Bridge",
      "name_tw": "台北橋",
      "color": "#f8b61c"
    },
    "O14": {
      "coordinates": [121.492156, 25.060274],
      "name_en": "Cailiao",
      "name_tw": "菜寮",
      "color": "#f8b61c"
    },
    "O15": {
      "coordinates": [121.484725, 25.055791],
      "name_en": "Sanchong",
      "name_tw": "三重",
      "color": "#f8b61c"
    },
    "O16": {
      "coordinates": [121.471916, 25.046493],
      "name_en": "Xianse Temple",
      "name_tw": "先嗇宮",
      "color": "#f8b61c"
    },
    "O17": {
      "coordinates": [121.461746, 25.039705],
      "name_en": "Touqianzhuang",
      "name_tw": "頭前庄",
      "color": "#f8b61c"
    },
    "O18": {
      "coordinates": [121.452468, 25.036125],
      "name_en": "Xinzhuang",
      "name_tw": "新莊",
      "color": "#f8b61c"
    },
    "O19": {
      "coordinates": [121.43547, 25.032718],
      "name_en": "Fu Jen University",
      "name_tw": "輔大",
      "color": "#f8b61c"
    },
    "O20": {
      "coordinates": [121.4227079, 25.0288671],
      "name_en": "Danfeng",
      "name_tw": "丹鳳",
      "color": "#f8b61c"
    },
    "O21": {
      "coordinates": [121.41127, 25.021862],
      "name_en": "Huilong",
      "name_tw": "迴龍",
      "color": "#f8b61c"
    },
    "O50": {
      "coordinates": [121.496904, 25.070319],
      "name_en": "Sanchong Elementary School",
      "name_tw": "三重國小",
      "color": "#f8b61c"
    },
    "O51": {
      "coordinates": [121.486347, 25.076859],
      "name_en": "Sanhe Junior High School",
      "name_tw": "三和國中",
      "color": "#f8b61c"
    },
    "O52": {
      "coordinates": [121.479673, 25.080728],
      "name_en": "St. Ignatius High School",
      "name_tw": "徐匯中學",
      "color": "#f8b61c"
    },
    "O53": {
      "coordinates": [121.473389, 25.085456],
      "name_en": "Sanmin Senior High School",
      "name_tw": "三民高中",
      "color": "#f8b61c"
    },
    "O54": {
      "coordinates": [121.464471, 25.091554],
      "name_en": "Luzhou",
      "name_tw": "蘆洲",
      "color": "#f8b61c"
    }
  },
  "板南線": {
    "BL01": {
      "coordinates": [121.4205, 24.96012],
      "name_en": "Dingpu",
      "name_tw": "頂埔",
      "color": "#0070bd"
    },
    "BL02": {
      "coordinates": [121.436072, 24.966726],
      "name_en": "Yongning",
      "name_tw": "永寧",
      "color": "#0070bd"
    },
    "BL03": {
      "coordinates": [121.444362, 24.973094],
      "name_en": "Tucheng",
      "name_tw": "土城",
      "color": "#0070bd"
    },
    "BL04": {
      "coordinates": [121.448786, 24.985339],
      "name_en": "Haishan",
      "name_tw": "海山",
      "color": "#0070bd"
    },
    "BL05": {
      "coordinates": [121.452514, 24.998037],
      "name_en": "Far Eastern Hospital",
      "name_tw": "亞東醫院",
      "color": "#0070bd"
    },
    "BL06": {
      "coordinates": [121.459409, 25.008619],
      "name_en": "Fuzhong",
      "name_tw": "府中",
      "color": "#0070bd"
    },
    "BL07": {
      "coordinates": [121.462302, 25.013618],
      "name_en": "Banqiao",
      "name_tw": "板橋",
      "color": "#0070bd"
    },
    "BL08": {
      "coordinates": [121.468361, 25.023738],
      "name_en": "Xinpu",
      "name_tw": "新埔",
      "color": "#0070bd"
    },
    "BL09": {
      "coordinates": [121.47239, 25.03001],
      "name_en": "Jianzicui",
      "name_tw": "江子翠",
      "color": "#0070bd"
    },
    "BL10": {
      "coordinates": [121.499826, 25.03528],
      "name_en": "Longshan Temple",
      "name_tw": "龍山寺",
      "color": "#0070bd"
    },
    "BL11": {
      "coordinates": [121.508303, 25.04209],
      "name_en": "Ximen",
      "name_tw": "西門",
      "color": "#0070bd"
    },
    "BL12": {
      "coordinates": [121.517532, 25.046255],
      "name_en": "Taipei Main Station",
      "name_tw": "台北車站",
      "color": "#0070bd"
    },
    "BL13": {
      "coordinates": [121.523208, 25.044823],
      "name_en": "Shandao Temple",
      "name_tw": "善導寺",
      "color": "#0070bd"
    },
    "BL14": {
      "coordinates": [121.532905, 25.042356],
      "name_en": "Zhongxiao Xinsheng",
      "name_tw": "忠孝新生",
      "color": "#0070bd"
    },
    "BL15": {
      "coordinates": [121.543767, 25.041629],
      "name_en": "Zhongxiao Fuxing",
      "name_tw": "忠孝復興",
      "color": "#0070bd"
    },
    "BL16": {
      "coordinates": [121.551098, 25.041478],
      "name_en": "Zhongxiao Dunhua",
      "name_tw": "忠孝敦化",
      "color": "#0070bd"
    },
    "BL17": {
      "coordinates": [121.557802, 25.041349],
      "name_en": "Sun Yat-Sen Memorial Hall",
      "name_tw": "國父紀念館",
      "color": "#0070bd"
    },
    "BL18": {
      "coordinates": [121.565228, 25.041171],
      "name_en": "Taipei City Hall",
      "name_tw": "市政府",
      "color": "#0070bd"
    },
    "BL19": {
      "coordinates": [121.576293, 25.040859],
      "name_en": "Yongchun",
      "name_tw": "永春",
      "color": "#0070bd"
    },
    "BL20": {
      "coordinates": [121.582522, 25.045055],
      "name_en": "Houshanpi",
      "name_tw": "後山埤",
      "color": "#0070bd"
    },
    "BL21": {
      "coordinates": [121.593268, 25.050461],
      "name_en": "Kunyang",
      "name_tw": "昆陽",
      "color": "#0070bd"
    },
    "BL22": {
      "coordinates": [121.606686, 25.052116],
      "name_en": "Nangang",
      "name_tw": "南港",
      "color": "#0070bd"
    },
    "BL23": {
      "coordinates": [121.6175001, 25.055288],
      "name_en": "Taipei Nangang Exhibition Center",
      "name_tw": "南港展覽館",
      "color": "#0070bd"
    }
  },
  "環狀線": {
    "Y07": {
      "coordinates": [121.541352, 24.982899],
      "name_en": "Dapinglin",
      "name_tw": "大坪林",
      "color": "#fddb00"
    },
    "Y08": {
      "coordinates": [121.5340099, 24.9829302],
      "name_en": "Shisizhang",
      "name_tw": "十四張",
      "color": "#fddb00"
    },
    "Y09": {
      "coordinates": [121.5250505, 24.9905493],
      "name_en": "Xiulang Bridge",
      "name_tw": "秀朗橋",
      "color": "#fddb00"
    },
    "Y10": {
      "coordinates": [121.5165532, 24.9919681],
      "name_en": "Jingping",
      "name_tw": "景平",
      "color": "#fddb00"
    },
    "Y11": {
      "coordinates": [121.505113, 24.993905],
      "name_en": "Jingan",
      "name_tw": "景安",
      "color": "#fddb00"
    },
    "Y12": {
      "coordinates": [121.4960519, 25.0019806],
      "name_en": "Zhonghe",
      "name_tw": "中和",
      "color": "#fddb00"
    },
    "Y13": {
      "coordinates": [121.4904608, 25.0044131],
      "name_en": "Qiaohe",
      "name_tw": "橋和",
      "color": "#fddb00"
    },
    "Y14": {
      "coordinates": [121.4841593, 25.0084104],
      "name_en": "Zhongyuan",
      "name_tw": "中原",
      "color": "#fddb00"
    },
    "Y15": {
      "coordinates": [121.4722124, 25.0144914],
      "name_en": "Banxin",
      "name_tw": "板新",
      "color": "#fddb00"
    },
    "Y16": {
      "coordinates": [121.464825, 25.015156],
      "name_en": "Banqiao",
      "name_tw": "板橋",
      "color": "#fddb00"
    },
    "Y17": {
      "coordinates": [121.466839, 25.026125],
      "name_en": "Xinpu Minsheng",
      "name_tw": "新埔民生",
      "color": "#fddb00"
    },
    "Y18": {
      "coordinates": [121.461655, 25.039735],
      "name_en": "Touqianzhuang",
      "name_tw": "頭前庄",
      "color": "#fddb00"
    },
    "Y19": {
      "coordinates": [121.460216, 25.050282],
      "name_en": "Xingfu",
      "name_tw": "幸福",
      "color": "#fddb00"
    },
    "Y20": {
      "coordinates": [121.4599257, 25.0615483],
      "name_en": "New Taipei Industrial Park",
      "name_tw": "新北產業園區",
      "color": "#fddb00"
    }
  },
  "機場線": {
    "A1": {
      "coordinates": [121.515245, 25.0491868],
      "name_en": "Taipei Main Station",
      "name_tw": "台北車站",
      "color": "#8246af"
    },
    "A2": {
      "coordinates": [121.4813901, 25.0552963],
      "name_en": "Sanchong",
      "name_tw": "三重",
      "color": "#8246af"
    },
    "A3": {
      "coordinates": [121.4567028, 25.061716],
      "name_en": "New Taipei Industrial Park",
      "name_tw": "新北產業園區",
      "color": "#8246af"
    },
    "A4": {
      "coordinates": [121.4434732, 25.0591305],
      "name_en": "Xinzhuang Fuduxin",
      "name_tw": "新莊副都心",
      "color": "#8246af"
    },
    "A5": {
      "coordinates": [121.4373407, 25.0532726],
      "name_en": "Taishan",
      "name_tw": "泰山",
      "color": "#8246af"
    },
    "A6": {
      "coordinates": [121.4201443, 25.0334752],
      "name_en": "Taishan Guihe",
      "name_tw": "泰山貴和",
      "color": "#8246af"
    },
    "A7": {
      "coordinates": [121.3832453, 25.041246],
      "name_en": "National Taiwan Sport University",
      "name_tw": "體育大學",
      "color": "#8246af"
    },
    "A8": {
      "coordinates": [121.3679403, 25.0604363],
      "name_en": "Chang Gung Memorial Hospital",
      "name_tw": "長庚醫院",
      "color": "#8246af"
    },
    "A9": {
      "coordinates": [121.3590943, 25.0665023],
      "name_en": "Linkou",
      "name_tw": "林口",
      "color": "#8246af"
    },
    "A10": {
      "coordinates": [121.2834868, 25.0803514],
      "name_en": "Shanbi",
      "name_tw": "山鼻",
      "color": "#8246af"
    },
    "A11": {
      "coordinates": [121.2642601, 25.086516],
      "name_en": "Kengkou",
      "name_tw": "坑口",
      "color": "#8246af"
    },
    "A12": {
      "coordinates": [121.2353293, 25.081385],
      "name_en": "Airport Terminal 1",
      "name_tw": "機場第一航廈",
      "color": "#8246af"
    },
    "A13": {
      "coordinates": [121.230063, 25.0772703],
      "name_en": "Airport Terminal 2",
      "name_tw": "機場第二航廈",
      "color": "#8246af"
    },
    "A14a": {
      "coordinates": [121.2187503, 25.0692598],
      "name_en": "Airport Hotel",
      "name_tw": "機場旅館",
      "color": "#8246af"
    },
    "A15": {
      "coordinates": [121.2082923, 25.0560465],
      "name_en": "Dayuan",
      "name_tw": "大園",
      "color": "#8246af"
    },
    "A16": {
      "coordinates": [121.2045017, 25.0460284],
      "name_en": "Hengshan",
      "name_tw": "橫山",
      "color": "#8246af"
    },
    "A17": {
      "coordinates": [121.2136874, 25.0189695],
      "name_en": "Linghang",
      "name_tw": "領航",
      "color": "#8246af"
    },
    "A18": {
      "coordinates": [121.2119733, 25.013762],
      "name_en": "Taoyuan HSR Station",
      "name_tw": "高鐵桃園站",
      "color": "#8246af"
    },
    "A19": {
      "coordinates": [121.2013063, 25.001996],
      "name_en": "Taoyuan Sports Park",
      "name_tw": "桃園體育園區",
      "color": "#8246af"
    },
    "A20": {
      "coordinates": [121.2140726, 24.9802492],
      "name_en": "Xingnan",
      "name_tw": "興南",
      "color": "#8246af"
    },
    "A21": {
      "coordinates": [121.2197492, 24.967381],
      "name_en": "Huanbei",
      "name_tw": "環北",
      "color": "#8246af"
    }
  }
}
